[
  {
    "row": 1,
    "type": "Edificio",
    "country": "ES",
    "city": "Llíria",
    "description": "Hogar del Jubilado",
    "address": "Plaza San Francisco, 38",
    "use": "servicio público",
    "surface": "956",
    "acquisition_mode": "-",
    "lat": 39.628152,
    "lon": -0.599425
  },
  {
    "row": 2,
    "type": "Edificio",
    "country": "ES",
    "city": "Llíria",
    "description": "Pabellón nuevo",
    "address": "Calle Pla de L'arc, 54",
    "use": "servicio público",
    "surface": "12118",
    "acquisition_mode": "-",
    "lat": 39.632339,
    "lon": -0.593144
  },
  {
    "row": 3,
    "type": "Edificio",
    "country": "ES",
    "city": "Llíria",
    "description": "Pabellón viejo",
    "address": "Avenida dels Furs, 1",
    "use": "servicio público",
    "surface": "2495",
    "acquisition_mode": "-",
    "lat": 39.6329251640232,
    "lon": -0.59353128969285
  },
  {
    "row": 4,
    "type": "Edificio",
    "country": "ES",
    "city": "Llíria",
    "description": "Campo fútbol 'El Cano'",
    "address": "Partida el Cano, s/n",
    "use": "servicio público",
    "surface": "32191",
    "acquisition_mode": "-",
    "lat": 39.639209,
    "lon": -0.592603
  },
  {
    "row": 5,
    "type": "Edificio",
    "country": "ES",
    "city": "Llíria",
    "description": "Biblioteca municipal",
    "address": "Calle Purísima, 50",
    "use": "servicio público",
    "surface": "528",
    "acquisition_mode": "-",
    "lat": 39.6260573582056,
    "lon": -0.60032588112523
  },
  {
    "row": 6,
    "type": "Edificio",
    "country": "ES",
    "city": "Llíria",
    "description": "Edificio adm. Altos mercado",
    "address": "Plaza major, 4",
    "use": "servicio público",
    "acquisition_mode": "-",
    "lat": 39.624673,
    "lon": -0.595317
  },
  {
    "row": 7,
    "type": "Edificio",
    "country": "ES",
    "city": "Llíria",
    "description": "Museo Arqueológico",
    "address": "Calle Trinquete vell, 10",
    "use": "servicio público",
    "surface": "49",
    "acquisition_mode": "-",
    "lat": 39.6257642,
    "lon": -0.593731
  },
  {
    "row": 8,
    "type": "Edificio",
    "country": "ES",
    "city": "Llíria",
    "description": "Espai Jove",
    "address": "Calle Andoval, 2",
    "use": "servicio público",
    "surface": "910",
    "acquisition_mode": "-",
    "lat": 39.6260913,
    "lon": -0.5924458
  },
  {
    "row": 9,
    "type": "Edificio",
    "country": "ES",
    "city": "Llíria",
    "description": "Edificio Omic",
    "address": "Calle Cura Roca, 74",
    "use": "servicio público",
    "surface": "32",
    "acquisition_mode": "-",
    "lat": 39.626024,
    "lon": -0.594644
  },
  {
    "row": 10,
    "type": "Edificio",
    "country": "ES",
    "city": "Llíria",
    "description": "Edificio Oficina Rehabilitaciónde viviendas",
    "address": "Calle Santísima Sangre, 15",
    "use": "servicio público",
    "surface": "73",
    "acquisition_mode": "-",
    "lat": 39.625382,
    "lon": -0.594275
  },
  {
    "row": 11,
    "type": "Edificio",
    "country": "ES",
    "city": "Llíria",
    "description": "Ca la Vila Vella",
    "address": "Calle Santísima Sangre, 17",
    "use": "servicio público",
    "acquisition_mode": "-",
    "lat": 39.625608,
    "lon": -0.594303
  },
  {
    "row": 12,
    "type": "Edificio",
    "country": "ES",
    "city": "Llíria",
    "description": "Museo forn la villa  vella",
    "address": "Calle Santísima Sangre, 8",
    "use": "servicio público",
    "surface": "191",
    "acquisition_mode": "-",
    "lat": 39.625202,
    "lon": -0.594274
  },
  {
    "row": 13,
    "type": "Edificio",
    "country": "ES",
    "city": "Llíria",
    "description": "Archivo municipal/antiguoRetén",
    "address": "Calle Juan Izquierdo, 1",
    "use": "servicio público",
    "surface": "104",
    "acquisition_mode": "-",
    "lat": 39.624845,
    "lon": -0.594543
  },
  {
    "row": 14,
    "type": "Edificio",
    "country": "ES",
    "city": "Llíria",
    "description": "Centro Ocupacional El Prat",
    "address": "Crt San Vicente, s/n",
    "use": "servicio público",
    "surface": "88480",
    "acquisition_mode": "-",
    "lat": 39.650307,
    "lon": -0.567101
  },
  {
    "row": 15,
    "type": "Edificio",
    "country": "ES",
    "city": "Llíria",
    "description": "Edificio Antiguo Polícia Local",
    "address": "Calle Pla de L'arc, s/n",
    "use": "servicio público",
    "acquisition_mode": "-",
    "lat": 39.634632,
    "lon": -0.590923
  },
  {
    "row": 16,
    "type": "Edificio",
    "country": "ES",
    "city": "Llíria",
    "description": "Trinquet municipal",
    "address": "Calle Pla de L'arc, 54",
    "use": "servicio público",
    "acquisition_mode": "-",
    "lat": 39.6340809,
    "lon": -0.59135
  },
  {
    "row": 17,
    "type": "Edificio",
    "country": "ES",
    "city": "Llíria",
    "description": "Escuela Taller Laurona",
    "address": "Ctra. San Vicente, s/n",
    "use": "servicio público",
    "acquisition_mode": "-",
    "lat": 39.650307,
    "lon": -0.567101
  },
  {
    "row": 18,
    "type": "Edificio",
    "country": "ES",
    "city": "Llíria",
    "description": "Escuela de Danza Municipal",
    "address": "Calle Trencall, 6",
    "use": "servicio público",
    "surface": "663,58",
    "acquisition_mode": "-",
    "lat": 39.624343,
    "lon": -0.590926
  },
  {
    "row": 19,
    "type": "Edificio",
    "country": "ES",
    "city": "Llíria",
    "description": "Conservatorio Municipal",
    "address": "Calle Trencall, 4",
    "use": "servicio público",
    "acquisition_mode": "-",
    "lat": 39.6250468531415,
    "lon": -0.591381136453448
  },
  {
    "row": 20,
    "type": "Edificio",
    "country": "ES",
    "city": "Llíria",
    "description": "Nuevo Edificio Policia Local",
    "address": "Calle Metge Josep Pérez Martínez, 5",
    "use": "servicio público",
    "acquisition_mode": "-",
    "lat": 39.634694,
    "lon": -0.590680
  },
  {
    "row": 21,
    "type": "Edificio",
    "country": "ES",
    "city": "Llíria",
    "description": "Baños Árabes",
    "address": "Calle Andoval, 6",
    "use": "cultural",
    "surface": "271",
    "acquisition_date": "03/01/1995",
    "acquisition_mode": "-",
    "lat": 39.6260913,
    "lon": -0.5924458
  },
  {
    "row": 22,
    "type": "Edificio",
    "country": "ES",
    "city": "Llíria",
    "description": "Edificio Multiusos",
    "address": "Calle Pla de L'arc, 58B",
    "use": "servicio público",
    "surface": "4153",
    "acquisition_mode": "-",
    "lat": 39.6340809,
    "lon": -0.59135
  },
  {
    "row": 23,
    "type": "Edificio",
    "country": "ES",
    "city": "Llíria",
    "description": "Mausoleos Romanos",
    "address": "Calle San Vte. Ferrer, 19",
    "use": "cultural",
    "surface": "309",
    "acquisition_date": "21/01/1999",
    "acquisition_mode": "ACUERDO",
    "lat": 39.627960,
    "lon": -0.595892
  },
  {
    "row": 24,
    "type": "Edificio",
    "country": "ES",
    "city": "Llíria",
    "description": "Bajos del mercado (OA)",
    "address": "Plaza Mayor, 4",
    "use": "servicio público",
    "acquisition_mode": "-",
    "lat": 39.624719,
    "lon": -0.595293
  },
  {
    "row": 25,
    "type": "Edificio",
    "country": "ES",
    "city": "Llíria",
    "description": "Villa Angeles",
    "address": "Avenida Pla de L'arc, 64",
    "use": "servicio público",
    "surface": "15032",
    "acquisition_mode": "-",
    "lat": 39.636126,
    "lon": -0.589515
  },
  {
    "row": 26,
    "type": "Edificio",
    "country": "ES",
    "city": "Llíria",
    "description": "Ayuntamiento",
    "address": "Plaza Mayor 1",
    "use": "OFICINAS MUNICIPALES",
    "surface": "333",
    "acquisition_mode": "-",
    "lat": 39.625089,
    "lon": -0.594894
  },
  {
    "row": 27,
    "type": "Edificio",
    "country": "ES",
    "city": "Llíria",
    "description": "Casa tapiada",
    "address": "Calle San Miguel, 145",
    "use": "servicio público",
    "surface": "95",
    "acquisition_date": "19/05/1994",
    "acquisition_mode": "ACUERDO Y RESOL. CONTRATO",
    "lat": 39.623253,
    "lon": -0.598434
  },
  {
    "row": 28,
    "type": "Edificio",
    "country": "ES",
    "city": "Llíria",
    "description": "Vivienda (servicios sociales)",
    "address": "Calle San Juan de Mata, 23",
    "use": "servicio público",
    "acquisition_mode": "-",
    "lat": 39.6260188,
    "lon": -0.5927432
  },
  {
    "row": 29,
    "type": "Edificio",
    "country": "ES",
    "city": "Llíria",
    "description": "Vivienda (servicios sociales)",
    "address": "Calle Pelayo, 39",
    "use": "servicio público",
    "acquisition_mode": "-",
    "lat": 39.625256,
    "lon": -0.596105
  },
  {
    "row": 30,
    "type": "Edificio",
    "country": "ES",
    "city": "Llíria",
    "description": "Vivienda (servicios sociales)",
    "address": "Calle San Miguel, 143",
    "use": "VIVIENDA",
    "surface": "162",
    "acquisition_date": "27/07/1993",
    "acquisition_mode": "Esc.pública ",
    "lat": 39.623325,
    "lon": -0.598468
  },
  {
    "row": 31,
    "type": "Edificio",
    "country": "ES",
    "city": "Llíria",
    "description": "Vivienda (servicios sociales)",
    "address": "Calle Torre de la Reina, 16",
    "use": "servicio público",
    "acquisition_mode": "-",
    "lat": 39.626281,
    "lon": -0.593739
  },
  {
    "row": 32,
    "type": "Edificio",
    "country": "ES",
    "city": "Llíria",
    "description": "Vivienda (servicios sociales)",
    "address": "Pza. Pedralva, 8-26",
    "use": "servicio público",
    "acquisition_mode": "-",
    "lat": 39.6291756,
    "lon": -0.6026714
  },
  {
    "row": 33,
    "type": "Edificio",
    "country": "ES",
    "city": "Llíria",
    "description": "Piso (servicios sociales)",
    "address": "Calle Valencia, 5-6",
    "use": "servicio público",
    "acquisition_mode": "-",
    "lat": 39.651473,
    "lon": -0.571975
  },
  {
    "row": 34,
    "type": "Edificio",
    "country": "ES",
    "city": "Llíria",
    "description": "Vivienda (servicios sociales)",
    "address": "Calle Mayor, 184",
    "use": "servicio público",
    "acquisition_mode": "-",
    "lat": 39.628261,
    "lon": -0.601009
  },
  {
    "row": 35,
    "type": "Edificio",
    "country": "ES",
    "city": "Llíria",
    "description": "Vivienda",
    "address": "Calle Villa Antigua, 8",
    "use": "servicio público",
    "acquisition_mode": "-",
    "lat": 39.624904,
    "lon": -0.593826
  },
  {
    "row": 36,
    "type": "Edificio",
    "country": "ES",
    "city": "Llíria",
    "description": "Vivienda (servicios sociales)",
    "address": "Calle Salvador, 29",
    "use": "servicio público",
    "acquisition_mode": "-",
    "lat": 39.6257489,
    "lon": -0.5971022
  },
  {
    "row": 37,
    "type": "Edificio",
    "country": "ES",
    "city": "Llíria",
    "description": "Anulada Mapfre (serviciossociales)",
    "address": "Calle morera de Plata, 6",
    "use": "servicio público",
    "acquisition_mode": "-",
    "lat": 39.625229,
    "lon": -0.596793
  },
  {
    "row": 38,
    "type": "Edificio",
    "country": "ES",
    "city": "Llíria",
    "description": "la sangre. Casa tapiada",
    "address": "Calle Mayor antigua, 18",
    "use": "servicio público",
    "surface": "136",
    "acquisition_mode": "-",
    "lat": 39.625686,
    "lon": -0.594147
  },
  {
    "row": 39,
    "type": "Edificio",
    "country": "ES",
    "city": "Llíria",
    "description": "Muralla Medieval entorno de la sangre. Casa tapiada",
    "address": "Calle Mayor antigua, 20",
    "use": "servicio público",
    "surface": "66",
    "acquisition_mode": "-",
    "lat": 39.625733,
    "lon": -0.594183
  },
  {
    "row": 40,
    "type": "Edificio",
    "country": "ES",
    "city": "Llíria",
    "description": "Casa Tapiada",
    "address": "Calle San Gil Chopo, 17",
    "use": "servicio público",
    "acquisition_mode": "-",
    "lat": 39.624524,
    "lon": -0.593928
  },
  {
    "row": 41,
    "type": "Edificio",
    "country": "ES",
    "city": "Llíria",
    "description": "San Juan de Mata",
    "address": "San Juan de Mata, 28",
    "use": "servicio público",
    "acquisition_mode": "-",
    "lat": 39.626528,
    "lon": -0.593203
  },
  {
    "row": 42,
    "type": "Edificio",
    "country": "ES",
    "city": "Llíria",
    "description": "San Juan de Mata",
    "address": "San Juan de Mata, 30",
    "use": "servicio público",
    "acquisition_mode": "-",
    "lat": 39.626534,
    "lon": -0.593200
  },
  {
    "row": 43,
    "type": "Edificio",
    "country": "ES",
    "city": "Llíria",
    "description": "San Juan de Mata",
    "address": "San Juan de Mata, 38",
    "use": "servicio público",
    "acquisition_mode": "-",
    "lan": 39.626416,
    "lon": -0.592921
  },
  {
    "row": 44,
    "type": "Edificio",
    "country": "ES",
    "city": "Llíria",
    "description": "San Miguel, Casa (Ruinosa)",
    "address": "Calle San Miguel, 119",
    "use": "servicio público",
    "surface": "40",
    "acquisition_mode": "-",
    "lat": 39.6257907,
    "lon": -0.5982808
  },
  {
    "row": 45,
    "type": "Edificio",
    "country": "ES",
    "city": "Llíria",
    "description": "Vivienda",
    "address": "Calle San Miguel, 141",
    "use": "VIVIENDA",
    "surface": "87",
    "acquisition_mode": "PERMUTA",
    "lat": 39.6257907,
    "lon": -0.5982808
  },
  {
    "row": 46,
    "type": "Edificio",
    "country": "ES",
    "city": "Llíria",
    "description": "Casa (Ruinosa tapiada)",
    "address": "Calle San Miguel, 133",
    "use": "servicio público",
    "surface": "-",
    "acquisition_date": "31/01/2003",
    "acquisition_mode": "ESCRITURA ",
    "lat": 39.6257907,
    "lon": -0.5982808
  },
  {
    "row": 47,
    "type": "Edificio",
    "country": "ES",
    "city": "Llíria",
    "description": "Vivienda",
    "address": "Calle San Miguel, 147",
    "use": "VIVIENDA",
    "surface": "182",
    "acquisition_date": "01/02/2003",
    "acquisition_mode": "ESCRITURA ",
    "lat": 39.6257907,
    "lon": -0.5982808
  },
  {
    "row": 48,
    "type": "Edificio",
    "country": "ES",
    "city": "Llíria",
    "description": "Ruinas Romanas (Aparca Llíria)",
    "address": "Calle San Vicente Ferrer, 20",
    "use": "servicio público",
    "surface": "184",
    "acquisition_mode": "-",
    "lat": 39.627601,
    "lon": -0.595698
  },
  {
    "row": 48,
    "type": "Edificio",
    "country": "ES",
    "city": "Llíria",
    "description": "Ruinas Romanas (Aparca Llíria)",
    "address": "Calle Duc Lliria, 13-14",
    "use": "servicio público",
    "surface": "184",
    "acquisition_mode": "-",
    "lat": 39.627823,
    "lon": -0.595022
  },
  {
    "row": 49,
    "type": "Edificio",
    "country": "ES",
    "city": "Llíria",
    "description": "Edificio SXVIII",
    "use": "servicio público",
    "surface": "359,13",
    "acquisition_date": "24/11/2006",
    "acquisition_mode": "ACUERDO",
    "lat": 39.625148,
    "lon": -0.595275
  },
  {
    "row": 50,
    "type": "Edificio",
    "country": "ES",
    "city": "Llíria",
    "description": "Piso plaza mayor",
    "address": "Calle Plaza mayor, 11",
    "use": "servicio público",
    "acquisition_mode": "-",
    "lat": 39.6252859368623,
    "lon": -0.594987644762592
  },
  {
    "row": 51,
    "type": "Edificio",
    "country": "ES",
    "city": "Llíria",
    "description": "Cementerio",
    "address": "Carretera Villamarchant, s/n",
    "use": "servicio público",
    "acquisition_mode": "-",
    "lat": 39.6225081,
    "lon": -0.5912453
  },
  {
    "row": 52,
    "type": "Edificio",
    "country": "ES",
    "city": "Llíria",
    "description": "Casa Tapiada",
    "address": "CalleAldea alta, 26",
    "use": "servicio público",
    "acquisition_mode": "-",
    "lat": 39.62465,
    "lon": -0.5983769
  },
  {
    "row": 53,
    "type": "Edificio",
    "country": "ES",
    "city": "Llíria",
    "description": "Casa ruinosa Tapiada",
    "address": "Calle Beaterio, 27",
    "use": "servicio público",
    "acquisition_mode": "-",
    "lat": 39.623115,
    "lon": -0.596035
  },
  {
    "row": 54,
    "type": "Edificio",
    "country": "ES",
    "city": "Llíria",
    "description": "Casa  Tapiada",
    "address": "Calle Colmenar, 8",
    "use": "servicio público",
    "acquisition_mode": "-",
    "lat": 39.6257372,
    "lon": -0.5935471
  },
  {
    "row": 55,
    "type": "Edificio",
    "country": "ES",
    "city": "Llíria",
    "description": "Vivienda",
    "address": "Calle Pich, 50",
    "use": "servicio público",
    "acquisition_mode": "-",
    "lat": 39.6227446,
    "lon": -0.5950182
  },
  {
    "row": 56,
    "type": "Edificio",
    "country": "ES",
    "city": "Llíria",
    "description": "San Juan de Mata",
    "address": "San Juan de Mata, 31",
    "use": "servicio público",
    "acquisition_mode": "-",
    "lat": 39.626457,
    "lon": -0.592892
  },
  {
    "row": 57,
    "type": "Edificio",
    "country": "ES",
    "city": "Llíria",
    "description": "Solar",
    "address": "Calle San Miguel, 115",
    "use": "servicio público",
    "surface": "51",
    "acquisition_mode": "-",
    "lat": 39.6257907,
    "lon": -0.5982808
  },
  {
    "row": 58,
    "type": "Edificio",
    "country": "ES",
    "city": "Llíria",
    "description": "Casa (Ruinosa tapiada)",
    "address": "Calle San Miguel, 139",
    "use": "servicio público",
    "acquisition_date": "31/03/2003",
    "acquisition_mode": "ESCRITURA",
    "lat": 39.6257907,
    "lon": -0.5982808
  },
  {
    "row": 59,
    "type": "Edificio",
    "country": "ES",
    "city": "Llíria",
    "description": "Edificio Timoneda",
    "address": "Calle San Timoneda, 32",
    "use": "servicio público",
    "acquisition_mode": "-",
    "lat": 39.623265,
    "lon": -0.593537
  },
  {
    "row": 60,
    "type": "Edificio",
    "country": "ES",
    "city": "Llíria",
    "description": "Edificio Timoneda",
    "address": "Calle San Timoneda, 32-d",
    "use": "servicio público",
    "acquisition_mode": "-",
    "lat": 39.623265,
    "lon": -0.593537
  },
  {
    "row": 61,
    "type": "Edificio",
    "country": "ES",
    "city": "Llíria",
    "description": "Chalet de San Vicente",
    "address": "polígono 157 Parcela 11",
    "use": "servicio público",
    "acquisition_mode": "-",
    "lat": 39.650545,
    "lon": -0.577127
  },
  {
    "row": 62,
    "type": "Edificio",
    "country": "ES",
    "city": "Llíria",
    "description": "Vivienda",
    "address": "Calle Duque de Llíria, S/N Vivienda 26-6ª",
    "use": "servicio público",
    "acquisition_mode": "-",
    "lat": 39.628167,
    "lon": -0.595322
  },
  {
    "row": 63,
    "type": "Edificio",
    "country": "ES",
    "city": "Llíria",
    "description": "Plaza de aparcamiento en Sotano 1º , nº 13",
    "address": "Vila Antigua",
    "use": "servicio público",
    "acquisition_mode": "-",
    "lat": 39.6249468232618,
    "lon": -0.593869253690194
  },
  {
    "row": 64,
    "type": "Edificio",
    "country": "ES",
    "city": "Llíria",
    "description": "Plaza de aparcamiento enSotano 1º , nº 14",
    "address": "Vila Antigua",
    "use": "servicio público",
    "acquisition_mode": "-",
    "lat": 39.6249468232618,
    "lon": -0.593869253690194
  },
  {
    "row": 65,
    "type": "Edificio",
    "country": "ES",
    "city": "Llíria",
    "description": "Vivienda Urbana, planta baja",
    "address": "Partida del Arco o Sensals, C'Porcar- La Bombilla",
    "use": "servicio público",
    "acquisition_mode": "-",
    "lat": 39.631115,
    "lon": -0.595354
  },
  {
    "row": 66,
    "type": "Edificio",
    "country": "ES",
    "city": "Llíria",
    "description": "Vivienda Urbana, piso bajo.",
    "address": "Partida del Arco o Sensals, C'Porcar- La Bombilla ",
    "use": "servicio público",
    "acquisition_mode": "-",
    "lat": 39.631115,
    "lon": -0.595354
  },
  {
    "row": 67,
    "type": "Edificio",
    "country": "ES",
    "city": "Llíria",
    "description": "Almacén briga de obras",
    "address": "Ctra. San Vicente (centrecívic el prat)",
    "use": "servicio público",
    "acquisition_mode": "-",
    "lat": 39.650307,
    "lon": -0.567101
  },
  {
    "row": 68,
    "type": "Edificio",
    "country": "ES",
    "city": "Llíria",
    "description": "Almacén briga de jardínes",
    "address": "Ctra. San Vicente (centrecívic el prat)",
    "use": "servicio público",
    "acquisition_mode": "-",
    "lat": 39.650307,
    "lon": -0.567101
  },
  {
    "row": 69,
    "type": "Edificio",
    "country": "ES",
    "city": "Llíria",
    "description": "Almacén briga residuos urbanos",
    "address": "Calle La Coma, 19 (polígono Rascanya)",
    "use": "servicio público",
    "acquisition_mode": "-",
    "lat": 39.6344169,
    "lon": -0.5826271
  },
  {
    "row": 70,
    "type": "Edificio",
    "country": "ES",
    "city": "Llíria",
    "description": "Escuela oficial de idiomas",
    "address": "Calle Alcalde Marcel.lí García, 4",
    "use": "servicio público",
    "acquisition_mode": "-",
    "lat": 39.635403,
    "lon": -0.589834
  },
  {
    "row": 71,
    "type": "Edificio",
    "country": "ES",
    "city": "Llíria",
    "description": "Local y dos plazas 87 y 88",
    "address": "Calle Garcilaso, 20",
    "use": "servicio público",
    "acquisition_mode": "-",
    "lat": 39.6234699,
    "lon": -0.5927977
  },
  {
    "row": 72,
    "type": "Edificio",
    "country": "ES",
    "city": "Llíria",
    "description": "Vivienda",
    "address": "Calle Casinos, 5",
    "use": "servicio público",
    "acquisition_mode": "-",
    "lat": 39.696206,
    "lon": -0.704339
  },
  {
    "row": 73,
    "type": "Edificio",
    "country": "ES",
    "description": "Plazas de garaje 22, 33, 34 y 36 y Local",
    "address": "Calle Farmaceutic Jose Marques Gil, 4",
    "use": "servicio público",
    "acquisition_mode": "-",
    "lat": 39.633397,
    "lon": -0.593275
  },
  {
    "row": 74,
    "type": "Edificio",
    "country": "ES",
    "description": "Plazas de garaje",
    "address": "Calle Cronista Josep Duran 4, 13 y 14",
    "use": "servicio público",
    "acquisition_mode": "-",
    "lat": 39.624061,
    "lon": -0.591670
  },
  {
    "row": 75,
    "type": "rústica",
    "description": "Mas de Moya",
    "address": "polígono 75, parcela 70",
    "surface": "340",
    "lat": 39.7281,
    "lon": -0.591919
  },
  {
    "row": 76,
    "type": "solar",
    "description": "Paraje La closa, Falcona, Mitjana",
    "address": "adjudicada 46, manzana M7 (A) ",
    "surface": "3.890",
    "lat": 39.621663,
    "lon": -0.589798
  },
  {
    "row": 77,
    "type": "Edificio",
    "description": "Paraje La closa, Falcona, Mitjana",
    "address": "UE SECTOR ST-1 46 EIXIDA BENISSANO, Parcela adjudicada 46, manzana M7 (A) ",
    "surface": "1.500",
    "lat": 39.621663,
    "lon": -0.589798
  },
  {
    "row": 78,
    "type": "Edificio",
    "description": "Planta baja",
    "address": "Calle Farmaceutic Marqués Gil, 4",
    "surface": "756,11",
    "lat": 39.6335991,
    "lon": -0.5937702
  },
  {
    "row": 79,
    "type": "Edificio",
    "description": "Plaza de garaje nº 22",
    "address": "Calle Farmaceutic Marqués Gil, 4",
    "surface": "25",
    "lat": 39.6335991,
    "lon": -0.5937702
  },
  {
    "row": 80,
    "type": "Edificio",
    "description": "Plaza de garaje nº 32",
    "address": "Calle Farmaceutic Marqués Gil, 4",
    "surface": "25",
    "lat": 39.6335991,
    "lon": -0.5937702
  },
  {
    "row": 81,
    "type": "Edificio",
    "description": "Plaza de garaje nº 33",
    "address": "Calle Farmaceutic Marqués Gil, 4",
    "surface": "25",
    "lat": 39.6335991,
    "lon": -0.5937702
  },
  {
    "row": 82,
    "type": "Edificio",
    "description": "Plaza de garaje nº 33",
    "address": "Calle Farmaceutic Marqués Gil, 4",
    "surface": "25",
    "lat": 39.6335991,
    "lon": -0.5937702
  },
  {
    "row": 83,
    "type": "Solar",
    "description": "Parcela 1 de terreno con edificaciones en la antigua estación de Llíria (P.K 29/390 al 29/471) de 1874m2",
    "address": "CM estación de la 1 y 1 (A) suelo 46160 Llíria (Valencia)",
    "surface": "1367m2 en U.E.-54; 507m2 en viario fuera de U.E; 7912m2 superficie gráfica; 7986m2 de superficie.",
    "lat": 39.622102,
    "lon": -0.59184
  },
  {
    "row": 84,
    "type": "Solar",
    "description": "Parcela 2 de terreno (P.K. 29/155 al 29/390) de 702m2",
    "address": "CM estación de la 1 y 1 (A) suelo 46160 Llíria (Valencia)",
    "surface": "523m2 en U.E.-54; 179m2 en viario fuera de U.E.; 1016m2 de superficie",
    "lat": 39.622102,
    "lon": -0.59184
  },
  {
    "row": 85,
    "type": "rústica",
    "description": "Parcela 3 de terreno (P.K. 29/107 al 29/155) de 204m2",
    "address": "Polígono 99 parcela 70, Topairet, Llíria (Valencia)",
    "surface": "118m2 en U.E.-54; 86m2 en viario fuera de U.E.; 203m2 de superficie gráfica; 204m2",
    "lat": 39.625148,
    "lon": -0.595275
  },
  {
    "row": 86,
    "type": "Solar",
    "description": "Parcela 4 de terreno (P.K. 29/145 al 29/390) de 6.336m2",
    "address": "CM estación de la 1 suelo 46160 Llíria (Valencia)",
    "surface": "4426m2 en U.E.-54; 1910m2 en viario fuera de U.E.; 7912m2 de superficie gráfica; 7896m2 de superficie",
    "lat": 39.622102,
    "lon": -0.59184
  },
  {
    "row": 87,
    "type": "Rústica",
    "description": "Parcela 5 de terreno (P.K. 29/037 al 29/107) de 1.035m2",
    "address": "Polígono 99 parcela 69, Topairet, Llíria (Valencia)",
    "surface": "726m2 en U.E.-54; 309m2 en viario fuera de U.E.; 1035m2 de superficie gráfica; 1035m2 de superficie",
    "lat": 39.6072802,
    "lon": -0.6034367
  }
]
